{
  "continents": [
    {
      "name": "Africa",
      "bounds": [[-35, -25], [37, 52]],
      "center": [2, 20],
      "subregions": [
        {
          "name": "North_Africa",
          "bounds": [[15, -17], [37, 35]],
          "center": [28, 10],
          "countries": [
            {"iso": "DZ", "name": "Algeria", "lat": 28.03, "lon": 1.66},
            {"iso": "EG", "name": "Egypt", "lat": 26.82, "lon": 30.80},
            {"iso": "LY", "name": "Libya", "lat": 26.34, "lon": 17.23},
            {"iso": "MA", "name": "Morocco", "lat": 31.79, "lon": -7.09},
            {"iso": "TN", "name": "Tunisia", "lat": 33.89, "lon": 9.54},
            {"iso": "SD", "name": "Sudan", "lat": 12.86, "lon": 30.22}
          ]
        },
        {
          "name": "West_Africa",
          "bounds": [[4, -17], [18, 16]],
          "center": [10, -2],
          "countries": [
            {"iso": "NG", "name": "Nigeria", "lat": 9.08, "lon": 8.68},
            {"iso": "GH", "name": "Ghana", "lat": 7.95, "lon": -1.02},
            {"iso": "SN", "name": "Senegal", "lat": 14.50, "lon": -14.45},
            {"iso": "CI", "name": "Ivory Coast", "lat": 7.54, "lon": -5.55},
            {"iso": "ML", "name": "Mali", "lat": 17.57, "lon": -4.00},
            {"iso": "BF", "name": "Burkina Faso", "lat": 12.24, "lon": -1.56},
            {"iso": "NE", "name": "Niger", "lat": 17.61, "lon": 8.08},
            {"iso": "GN", "name": "Guinea", "lat": 9.95, "lon": -9.70},
            {"iso": "BJ", "name": "Benin", "lat": 9.31, "lon": 2.32},
            {"iso": "TG", "name": "Togo", "lat": 8.62, "lon": 1.21},
            {"iso": "SL", "name": "Sierra Leone", "lat": 8.46, "lon": -11.78},
            {"iso": "LR", "name": "Liberia", "lat": 6.43, "lon": -9.43},
            {"iso": "MR", "name": "Mauritania", "lat": 21.01, "lon": -10.94},
            {"iso": "GM", "name": "Gambia", "lat": 13.44, "lon": -15.31},
            {"iso": "GW", "name": "Guinea-Bissau", "lat": 11.80, "lon": -15.18},
            {"iso": "CV", "name": "Cape Verde", "lat": 16.00, "lon": -24.01}
          ]
        },
        {
          "name": "East_Africa",
          "bounds": [[-12, 28], [12, 52]],
          "center": [0, 38],
          "countries": [
            {"iso": "KE", "name": "Kenya", "lat": -0.02, "lon": 37.91},
            {"iso": "TZ", "name": "Tanzania", "lat": -6.37, "lon": 34.89},
            {"iso": "UG", "name": "Uganda", "lat": 1.37, "lon": 32.29},
            {"iso": "RW", "name": "Rwanda", "lat": -1.94, "lon": 29.87},
            {"iso": "BI", "name": "Burundi", "lat": -3.37, "lon": 29.92},
            {"iso": "MZ", "name": "Mozambique", "lat": -18.67, "lon": 35.53},
            {"iso": "MG", "name": "Madagascar", "lat": -18.77, "lon": 46.87},
            {"iso": "MW", "name": "Malawi", "lat": -13.25, "lon": 34.30},
            {"iso": "MU", "name": "Mauritius", "lat": -20.35, "lon": 57.55},
            {"iso": "SC", "name": "Seychelles", "lat": -4.68, "lon": 55.49},
            {"iso": "KM", "name": "Comoros", "lat": -11.88, "lon": 43.87}
          ]
        },
        {
          "name": "Horn_of_Africa",
          "bounds": [[-2, 32], [18, 51]],
          "center": [8, 42],
          "countries": [
            {"iso": "ET", "name": "Ethiopia", "lat": 9.15, "lon": 40.49},
            {"iso": "SO", "name": "Somalia", "lat": 5.15, "lon": 46.20},
            {"iso": "ER", "name": "Eritrea", "lat": 15.18, "lon": 39.78},
            {"iso": "DJ", "name": "Djibouti", "lat": 11.59, "lon": 43.15},
            {"iso": "SS", "name": "South Sudan", "lat": 6.88, "lon": 31.31}
          ]
        },
        {
          "name": "Southern_Africa",
          "bounds": [[-35, 11], [-10, 41]],
          "center": [-22, 25],
          "countries": [
            {"iso": "ZA", "name": "South Africa", "lat": -30.56, "lon": 22.94},
            {"iso": "BW", "name": "Botswana", "lat": -22.33, "lon": 24.68},
            {"iso": "ZW", "name": "Zimbabwe", "lat": -19.02, "lon": 29.15},
            {"iso": "ZM", "name": "Zambia", "lat": -13.13, "lon": 27.85},
            {"iso": "NA", "name": "Namibia", "lat": -22.96, "lon": 18.49},
            {"iso": "SZ", "name": "Eswatini", "lat": -26.52, "lon": 31.47},
            {"iso": "LS", "name": "Lesotho", "lat": -29.61, "lon": 28.23}
          ]
        },
        {
          "name": "Central_Africa",
          "bounds": [[-6, 8], [12, 32]],
          "center": [2, 20],
          "countries": [
            {"iso": "CD", "name": "DR Congo", "lat": -4.04, "lon": 21.76},
            {"iso": "CG", "name": "Congo", "lat": -0.23, "lon": 15.83},
            {"iso": "CM", "name": "Cameroon", "lat": 7.37, "lon": 12.35},
            {"iso": "GA", "name": "Gabon", "lat": -0.80, "lon": 11.61},
            {"iso": "GQ", "name": "Equatorial Guinea", "lat": 1.65, "lon": 10.27},
            {"iso": "CF", "name": "Central African Republic", "lat": 6.61, "lon": 20.94},
            {"iso": "TD", "name": "Chad", "lat": 15.45, "lon": 18.73},
            {"iso": "AO", "name": "Angola", "lat": -11.20, "lon": 17.87},
            {"iso": "ST", "name": "Sao Tome and Principe", "lat": 0.19, "lon": 6.61}
          ]
        },
        {
          "name": "Sahel",
          "bounds": [[10, -17], [20, 24]],
          "center": [15, 3],
          "countries": [
            {"iso": "ML", "name": "Mali", "lat": 17.57, "lon": -4.00},
            {"iso": "BF", "name": "Burkina Faso", "lat": 12.24, "lon": -1.56},
            {"iso": "NE", "name": "Niger", "lat": 17.61, "lon": 8.08},
            {"iso": "TD", "name": "Chad", "lat": 15.45, "lon": 18.73},
            {"iso": "MR", "name": "Mauritania", "lat": 21.01, "lon": -10.94}
          ]
        }
      ]
    },
    {
      "name": "Americas",
      "bounds": [[-56, -170], [72, -30]],
      "center": [15, -80],
      "subregions": [
        {
          "name": "North_America",
          "bounds": [[24, -170], [72, -50]],
          "center": [48, -100],
          "countries": [
            {"iso": "US", "name": "United States", "lat": 37.09, "lon": -95.71},
            {"iso": "CA", "name": "Canada", "lat": 56.13, "lon": -106.35},
            {"iso": "MX", "name": "Mexico", "lat": 23.63, "lon": -102.55}
          ]
        },
        {
          "name": "Central_America",
          "bounds": [[7, -92], [18, -77]],
          "center": [13, -85],
          "countries": [
            {"iso": "GT", "name": "Guatemala", "lat": 15.78, "lon": -90.23},
            {"iso": "BZ", "name": "Belize", "lat": 17.19, "lon": -88.50},
            {"iso": "HN", "name": "Honduras", "lat": 15.20, "lon": -86.24},
            {"iso": "SV", "name": "El Salvador", "lat": 13.79, "lon": -88.90},
            {"iso": "NI", "name": "Nicaragua", "lat": 12.87, "lon": -85.21},
            {"iso": "CR", "name": "Costa Rica", "lat": 9.75, "lon": -83.75},
            {"iso": "PA", "name": "Panama", "lat": 8.54, "lon": -80.78}
          ]
        },
        {
          "name": "Caribbean",
          "bounds": [[10, -85], [27, -59]],
          "center": [18, -72],
          "countries": [
            {"iso": "CU", "name": "Cuba", "lat": 21.52, "lon": -77.78},
            {"iso": "HT", "name": "Haiti", "lat": 18.97, "lon": -72.29},
            {"iso": "DO", "name": "Dominican Republic", "lat": 18.74, "lon": -70.16},
            {"iso": "JM", "name": "Jamaica", "lat": 18.11, "lon": -77.30},
            {"iso": "TT", "name": "Trinidad and Tobago", "lat": 10.69, "lon": -61.22},
            {"iso": "BS", "name": "Bahamas", "lat": 25.03, "lon": -77.40},
            {"iso": "BB", "name": "Barbados", "lat": 13.19, "lon": -59.54},
            {"iso": "PR", "name": "Puerto Rico", "lat": 18.22, "lon": -66.59}
          ]
        },
        {
          "name": "South_America",
          "bounds": [[-56, -82], [13, -34]],
          "center": [-8, -55],
          "countries": [
            {"iso": "BR", "name": "Brazil", "lat": -14.24, "lon": -51.93},
            {"iso": "AR", "name": "Argentina", "lat": -38.42, "lon": -63.62},
            {"iso": "CL", "name": "Chile", "lat": -35.68, "lon": -71.54},
            {"iso": "CO", "name": "Colombia", "lat": 4.57, "lon": -74.30},
            {"iso": "PE", "name": "Peru", "lat": -9.19, "lon": -75.02},
            {"iso": "VE", "name": "Venezuela", "lat": 6.42, "lon": -66.59},
            {"iso": "EC", "name": "Ecuador", "lat": -1.83, "lon": -78.18},
            {"iso": "BO", "name": "Bolivia", "lat": -16.29, "lon": -63.59},
            {"iso": "PY", "name": "Paraguay", "lat": -23.44, "lon": -58.44},
            {"iso": "UY", "name": "Uruguay", "lat": -32.52, "lon": -55.77},
            {"iso": "GY", "name": "Guyana", "lat": 4.86, "lon": -58.93},
            {"iso": "SR", "name": "Suriname", "lat": 3.92, "lon": -56.03}
          ]
        }
      ]
    },
    {
      "name": "Asia",
      "bounds": [[-10, 25], [55, 150]],
      "center": [30, 90],
      "subregions": [
        {
          "name": "East_Asia",
          "bounds": [[18, 100], [54, 150]],
          "center": [35, 120],
          "countries": [
            {"iso": "CN", "name": "China", "lat": 35.86, "lon": 104.20},
            {"iso": "JP", "name": "Japan", "lat": 36.20, "lon": 138.25},
            {"iso": "KR", "name": "South Korea", "lat": 35.91, "lon": 127.77},
            {"iso": "KP", "name": "North Korea", "lat": 40.34, "lon": 127.51},
            {"iso": "TW", "name": "Taiwan", "lat": 23.70, "lon": 120.96},
            {"iso": "MN", "name": "Mongolia", "lat": 46.86, "lon": 103.85},
            {"iso": "HK", "name": "Hong Kong", "lat": 22.40, "lon": 114.11}
          ]
        },
        {
          "name": "Southeast_Asia",
          "bounds": [[-10, 95], [28, 140]],
          "center": [10, 115],
          "countries": [
            {"iso": "ID", "name": "Indonesia", "lat": -0.79, "lon": 113.92},
            {"iso": "TH", "name": "Thailand", "lat": 15.87, "lon": 100.99},
            {"iso": "VN", "name": "Vietnam", "lat": 14.06, "lon": 108.28},
            {"iso": "PH", "name": "Philippines", "lat": 12.88, "lon": 121.77},
            {"iso": "MY", "name": "Malaysia", "lat": 4.21, "lon": 101.98},
            {"iso": "SG", "name": "Singapore", "lat": 1.35, "lon": 103.82},
            {"iso": "MM", "name": "Myanmar", "lat": 21.91, "lon": 95.96},
            {"iso": "KH", "name": "Cambodia", "lat": 12.57, "lon": 104.99},
            {"iso": "LA", "name": "Laos", "lat": 19.86, "lon": 102.50},
            {"iso": "BN", "name": "Brunei", "lat": 4.54, "lon": 114.73},
            {"iso": "TL", "name": "Timor-Leste", "lat": -8.87, "lon": 125.73}
          ]
        },
        {
          "name": "South_Asia",
          "bounds": [[5, 60], [37, 98]],
          "center": [22, 78],
          "countries": [
            {"iso": "IN", "name": "India", "lat": 20.59, "lon": 78.96},
            {"iso": "PK", "name": "Pakistan", "lat": 30.38, "lon": 69.35},
            {"iso": "BD", "name": "Bangladesh", "lat": 23.68, "lon": 90.36},
            {"iso": "LK", "name": "Sri Lanka", "lat": 7.87, "lon": 80.77},
            {"iso": "NP", "name": "Nepal", "lat": 28.39, "lon": 84.12},
            {"iso": "AF", "name": "Afghanistan", "lat": 33.94, "lon": 67.71},
            {"iso": "BT", "name": "Bhutan", "lat": 27.51, "lon": 90.43},
            {"iso": "MV", "name": "Maldives", "lat": 3.20, "lon": 73.22}
          ]
        },
        {
          "name": "Central_Asia",
          "bounds": [[35, 50], [55, 88]],
          "center": [43, 68],
          "countries": [
            {"iso": "KZ", "name": "Kazakhstan", "lat": 48.02, "lon": 66.92},
            {"iso": "UZ", "name": "Uzbekistan", "lat": 41.38, "lon": 64.59},
            {"iso": "TM", "name": "Turkmenistan", "lat": 38.97, "lon": 59.56},
            {"iso": "KG", "name": "Kyrgyzstan", "lat": 41.20, "lon": 74.77},
            {"iso": "TJ", "name": "Tajikistan", "lat": 38.86, "lon": 71.28}
          ]
        }
      ]
    },
    {
      "name": "Europe",
      "bounds": [[34, -25], [72, 45]],
      "center": [50, 15],
      "subregions": [
        {
          "name": "Western_Europe",
          "bounds": [[42, -10], [55, 8]],
          "center": [48, 2],
          "countries": [
            {"iso": "FR", "name": "France", "lat": 46.23, "lon": 2.21},
            {"iso": "DE", "name": "Germany", "lat": 51.17, "lon": 10.45},
            {"iso": "NL", "name": "Netherlands", "lat": 52.13, "lon": 5.29},
            {"iso": "BE", "name": "Belgium", "lat": 50.50, "lon": 4.47},
            {"iso": "LU", "name": "Luxembourg", "lat": 49.82, "lon": 6.13},
            {"iso": "CH", "name": "Switzerland", "lat": 46.82, "lon": 8.23},
            {"iso": "AT", "name": "Austria", "lat": 47.52, "lon": 14.55},
            {"iso": "LI", "name": "Liechtenstein", "lat": 47.17, "lon": 9.56},
            {"iso": "MC", "name": "Monaco", "lat": 43.75, "lon": 7.42}
          ]
        },
        {
          "name": "Northern_Europe",
          "bounds": [[53, -25], [72, 32]],
          "center": [62, 10],
          "countries": [
            {"iso": "GB", "name": "United Kingdom", "lat": 55.38, "lon": -3.44},
            {"iso": "IE", "name": "Ireland", "lat": 53.14, "lon": -7.69},
            {"iso": "SE", "name": "Sweden", "lat": 60.13, "lon": 18.64},
            {"iso": "NO", "name": "Norway", "lat": 60.47, "lon": 8.47},
            {"iso": "DK", "name": "Denmark", "lat": 56.26, "lon": 9.50},
            {"iso": "FI", "name": "Finland", "lat": 61.92, "lon": 25.75},
            {"iso": "IS", "name": "Iceland", "lat": 64.96, "lon": -19.02},
            {"iso": "EE", "name": "Estonia", "lat": 58.60, "lon": 25.01},
            {"iso": "LV", "name": "Latvia", "lat": 56.88, "lon": 24.60},
            {"iso": "LT", "name": "Lithuania", "lat": 55.17, "lon": 23.88}
          ]
        },
        {
          "name": "Southern_Europe",
          "bounds": [[34, -10], [47, 30]],
          "center": [41, 12],
          "countries": [
            {"iso": "ES", "name": "Spain", "lat": 40.46, "lon": -3.75},
            {"iso": "PT", "name": "Portugal", "lat": 39.40, "lon": -8.22},
            {"iso": "IT", "name": "Italy", "lat": 41.87, "lon": 12.57},
            {"iso": "GR", "name": "Greece", "lat": 39.07, "lon": 21.82},
            {"iso": "MT", "name": "Malta", "lat": 35.94, "lon": 14.38},
            {"iso": "CY", "name": "Cyprus", "lat": 35.13, "lon": 33.43},
            {"iso": "AD", "name": "Andorra", "lat": 42.55, "lon": 1.60}
          ]
        },
        {
          "name": "Eastern_Europe",
          "bounds": [[45, 20], [60, 45]],
          "center": [52, 32],
          "countries": [
            {"iso": "RU", "name": "Russia", "lat": 61.52, "lon": 105.32},
            {"iso": "UA", "name": "Ukraine", "lat": 48.38, "lon": 31.17},
            {"iso": "PL", "name": "Poland", "lat": 51.92, "lon": 19.15},
            {"iso": "CZ", "name": "Czech Republic", "lat": 49.82, "lon": 15.47},
            {"iso": "SK", "name": "Slovakia", "lat": 48.67, "lon": 19.70},
            {"iso": "HU", "name": "Hungary", "lat": 47.16, "lon": 19.50},
            {"iso": "RO", "name": "Romania", "lat": 45.94, "lon": 24.97},
            {"iso": "MD", "name": "Moldova", "lat": 47.41, "lon": 28.37},
            {"iso": "BY", "name": "Belarus", "lat": 53.71, "lon": 27.95},
            {"iso": "BG", "name": "Bulgaria", "lat": 42.73, "lon": 25.49}
          ]
        },
        {
          "name": "Balkans",
          "bounds": [[38, 13], [47, 30]],
          "center": [43, 21],
          "countries": [
            {"iso": "RS", "name": "Serbia", "lat": 44.02, "lon": 21.01},
            {"iso": "HR", "name": "Croatia", "lat": 45.10, "lon": 15.20},
            {"iso": "BA", "name": "Bosnia and Herzegovina", "lat": 43.92, "lon": 17.68},
            {"iso": "ME", "name": "Montenegro", "lat": 42.71, "lon": 19.37},
            {"iso": "MK", "name": "North Macedonia", "lat": 41.51, "lon": 21.75},
            {"iso": "AL", "name": "Albania", "lat": 41.15, "lon": 20.17},
            {"iso": "XK", "name": "Kosovo", "lat": 42.60, "lon": 20.90},
            {"iso": "SI", "name": "Slovenia", "lat": 46.15, "lon": 14.99}
          ]
        },
        {
          "name": "Caucasus",
          "bounds": [[38, 38], [44, 51]],
          "center": [42, 44],
          "countries": [
            {"iso": "GE", "name": "Georgia", "lat": 42.32, "lon": 43.36},
            {"iso": "AM", "name": "Armenia", "lat": 40.07, "lon": 45.04},
            {"iso": "AZ", "name": "Azerbaijan", "lat": 40.14, "lon": 47.58}
          ]
        },
        {
          "name": "Arctic",
          "bounds": [[60, -55], [84, 40]],
          "center": [72, -10],
          "countries": [
            {"iso": "GL", "name": "Greenland", "lat": 71.71, "lon": -42.60},
            {"iso": "FO", "name": "Faroe Islands", "lat": 61.89, "lon": -6.91},
            {"iso": "SJ", "name": "Svalbard", "lat": 77.55, "lon": 23.67}
          ]
        }
      ]
    },
    {
      "name": "Middle_East",
      "bounds": [[12, 24], [42, 63]],
      "center": [29, 44],
      "subregions": [
        {
          "name": "Gulf_States",
          "bounds": [[18, 42], [32, 60]],
          "center": [25, 50],
          "countries": [
            {"iso": "SA", "name": "Saudi Arabia", "lat": 23.89, "lon": 45.08},
            {"iso": "AE", "name": "United Arab Emirates", "lat": 23.42, "lon": 53.85},
            {"iso": "QA", "name": "Qatar", "lat": 25.35, "lon": 51.18},
            {"iso": "KW", "name": "Kuwait", "lat": 29.31, "lon": 47.48},
            {"iso": "BH", "name": "Bahrain", "lat": 26.07, "lon": 50.56},
            {"iso": "OM", "name": "Oman", "lat": 21.47, "lon": 55.98},
            {"iso": "YE", "name": "Yemen", "lat": 15.55, "lon": 48.52}
          ]
        },
        {
          "name": "Levant",
          "bounds": [[29, 34], [38, 46]],
          "center": [33, 38],
          "countries": [
            {"iso": "IL", "name": "Israel", "lat": 31.05, "lon": 34.85},
            {"iso": "PS", "name": "Palestine", "lat": 31.95, "lon": 35.23},
            {"iso": "LB", "name": "Lebanon", "lat": 33.85, "lon": 35.86},
            {"iso": "JO", "name": "Jordan", "lat": 30.59, "lon": 36.24},
            {"iso": "SY", "name": "Syria", "lat": 34.80, "lon": 38.99},
            {"iso": "IQ", "name": "Iraq", "lat": 33.22, "lon": 43.68}
          ]
        },
        {
          "name": "Maghreb",
          "bounds": [[20, -17], [37, 12]],
          "center": [30, -2],
          "countries": [
            {"iso": "MA", "name": "Morocco", "lat": 31.79, "lon": -7.09},
            {"iso": "DZ", "name": "Algeria", "lat": 28.03, "lon": 1.66},
            {"iso": "TN", "name": "Tunisia", "lat": 33.89, "lon": 9.54},
            {"iso": "LY", "name": "Libya", "lat": 26.34, "lon": 17.23}
          ]
        }
      ]
    },
    {
      "name": "Oceania",
      "bounds": [[-48, 110], [0, 180]],
      "center": [-22, 140],
      "subregions": [
        {
          "name": "Oceania",
          "bounds": [[-48, 110], [-8, 180]],
          "center": [-27, 145],
          "countries": [
            {"iso": "AU", "name": "Australia", "lat": -25.27, "lon": 133.78},
            {"iso": "NZ", "name": "New Zealand", "lat": -40.90, "lon": 174.89}
          ]
        },
        {
          "name": "Pacific_Islands",
          "bounds": [[-22, 160], [10, 180]],
          "center": [-5, 170],
          "countries": [
            {"iso": "PG", "name": "Papua New Guinea", "lat": -6.31, "lon": 143.96},
            {"iso": "FJ", "name": "Fiji", "lat": -17.71, "lon": 178.07},
            {"iso": "SB", "name": "Solomon Islands", "lat": -9.43, "lon": 160.02},
            {"iso": "VU", "name": "Vanuatu", "lat": -15.38, "lon": 166.96},
            {"iso": "WS", "name": "Samoa", "lat": -13.76, "lon": -172.10},
            {"iso": "TO", "name": "Tonga", "lat": -21.18, "lon": -175.20},
            {"iso": "NC", "name": "New Caledonia", "lat": -20.90, "lon": 165.62},
            {"iso": "PF", "name": "French Polynesia", "lat": -17.68, "lon": -149.41}
          ]
        }
      ]
    }
  ],
  "topicGroups": [
    {
      "name": "Security & Geopolitics",
      "id": "security",
      "default": true,
      "topics": ["conflict", "geopolitics", "military_defense", "cybersecurity", "nuclear_proliferation", "crime_organized", "general_world_news"]
    },
    {
      "name": "Economy & Trade",
      "id": "economy",
      "default": true,
      "topics": ["economy_finance", "supply_chain", "real_estate", "startups_venture", "maritime"]
    },
    {
      "name": "Society & Governance",
      "id": "society",
      "topics": ["human_rights", "elections_governance", "legal_justice", "education_academia", "migration_refugees", "indigenous_peoples", "philosophy_ethics"]
    },
    {
      "name": "Science & Tech",
      "id": "science",
      "topics": ["technology", "science_research", "space_astronomy", "medicine_pharma"]
    },
    {
      "name": "Environment & Nature",
      "id": "environment",
      "topics": ["climate_environment", "disaster_natural", "biodiversity_wildlife", "agriculture_farming"]
    },
    {
      "name": "Sports",
      "id": "sports",
      "topics": ["football_soccer", "basketball_nba", "motorsport_f1", "combat_sports", "athletics_other", "gaming_esports"]
    },
    {
      "name": "Culture & Entertainment",
      "id": "culture",
      "topics": ["cinema_tv", "music", "art_museums", "literature_books", "fashion", "gastronomy_food_culture", "tourism_travel"]
    },
    {
      "name": "International Orgs",
      "id": "intl",
      "topics": ["united_nations", "media_journalism"]
    },
    {
      "name": "Other",
      "id": "other",
      "topics": ["automotive", "archaeology_history"]
    }
  ],
  "meta": {
    "version": 1,
    "continents": 6,
    "subregions": 26,
    "countries": 178,
    "generated": "2026-04-13"
  }
}
