[{"id":"marea","name":"MAREA","points":[[-73,39],[-30,42],[-9,37]],"major":true,"capacityTbps":200,"rfsYear":2017,"owners":["Microsoft","Meta","Telxius"],"landingPoints":[{"country":"US","countryName":"United States","city":"Virginia Beach","lat":36.85,"lon":-75.98},{"country":"ES","countryName":"Spain","city":"Bilbao","lat":43.26,"lon":-2.93}],"countriesServed":[{"country":"US","capacityShare":0.05,"isRedundant":true},{"country":"ES","capacityShare":0.15,"isRedundant":true},{"country":"GB","capacityShare":0.08,"isRedundant":true},{"country":"FR","capacityShare":0.06,"isRedundant":true}]},{"id":"grace_hopper","name":"Grace Hopper","points":[[-74,40],[-30,44],[-6,53],[-9,37]],"major":true,"capacityTbps":340,"rfsYear":2022,"owners":["Google"],"landingPoints":[{"country":"US","countryName":"United States","city":"New York","lat":40.57,"lon":-73.97},{"country":"GB","countryName":"United Kingdom","city":"Bude","lat":50.83,"lon":-4.55},{"country":"ES","countryName":"Spain","city":"Bilbao","lat":43.26,"lon":-2.93}],"countriesServed":[{"country":"US","capacityShare":0.04,"isRedundant":true},{"country":"GB","capacityShare":0.12,"isRedundant":true},{"country":"ES","capacityShare":0.1,"isRedundant":true}]},{"id":"havfrue","name":"Havfrue","points":[[-74,40.5],[-30,55],[5,58],[12,56]],"major":true,"capacityTbps":108,"rfsYear":2020,"owners":["Google","Facebook","Aqua Comms"],"landingPoints":[{"country":"US","countryName":"United States","city":"New Jersey","lat":40.22,"lon":-74.01},{"country":"NO","countryName":"Norway","city":"Kristiansand","lat":58.15,"lon":8},{"country":"DK","countryName":"Denmark","city":"Blaabjerg","lat":55.56,"lon":8.13}],"countriesServed":[{"country":"US","capacityShare":0.02,"isRedundant":true},{"country":"NO","capacityShare":0.25,"isRedundant":true},{"country":"DK","capacityShare":0.2,"isRedundant":true}]},{"id":"faster","name":"FASTER","points":[[-122,37],[-155,22],[139,35]],"major":true,"capacityTbps":60,"rfsYear":2016,"owners":["Google","China Mobile","China Telecom","KDDI","SingTel"],"landingPoints":[{"country":"US","countryName":"United States","city":"Oregon","lat":43.37,"lon":-124.22},{"country":"JP","countryName":"Japan","city":"Chikura","lat":34.95,"lon":139.95},{"country":"JP","countryName":"Japan","city":"Shima","lat":34.32,"lon":136.85}],"countriesServed":[{"country":"US","capacityShare":0.03,"isRedundant":true},{"country":"JP","capacityShare":0.15,"isRedundant":true}]},{"id":"southern_cross","name":"Southern Cross","points":[[151,-34],[-175,-40],[-122,34]],"major":true,"capacityTbps":72,"rfsYear":2000,"owners":["Southern Cross Cables"],"landingPoints":[{"country":"AU","countryName":"Australia","city":"Sydney","lat":-33.87,"lon":151.21},{"country":"NZ","countryName":"New Zealand","city":"Auckland","lat":-36.85,"lon":174.76},{"country":"US","countryName":"United States","city":"Los Angeles","lat":33.74,"lon":-118.27}],"countriesServed":[{"country":"AU","capacityShare":0.2,"isRedundant":true},{"country":"NZ","capacityShare":0.35,"isRedundant":false},{"country":"FJ","capacityShare":0.15,"isRedundant":false}]},{"id":"curie","name":"Curie","points":[[-122.4,37.8],[-90,10],[-77,-12]],"major":true,"capacityTbps":72,"rfsYear":2019,"owners":["Google"],"landingPoints":[{"country":"US","countryName":"United States","city":"Los Angeles","lat":33.74,"lon":-118.27},{"country":"CL","countryName":"Chile","city":"Valparaiso","lat":-33.05,"lon":-71.62}],"countriesServed":[{"country":"US","capacityShare":0.01,"isRedundant":true},{"country":"CL","capacityShare":0.25,"isRedundant":true},{"country":"PA","capacityShare":0.1,"isRedundant":true}]},{"id":"seamewe6","name":"SEA-ME-WE 6","points":[[103.8,1.3],[80,6],[55,24],[43,12],[32.5,30],[12.5,42],[-9,38]],"major":true,"capacityTbps":100,"rfsYear":2025,"owners":["Consortium"],"landingPoints":[{"country":"SG","countryName":"Singapore","city":"Singapore","lat":1.35,"lon":103.82},{"country":"IN","countryName":"India","city":"Mumbai","lat":19.08,"lon":72.88},{"country":"AE","countryName":"UAE","city":"Fujairah","lat":25.13,"lon":56.34},{"country":"SA","countryName":"Saudi Arabia","city":"Jeddah","lat":21.49,"lon":39.19},{"country":"EG","countryName":"Egypt","city":"Suez","lat":29.97,"lon":32.55},{"country":"FR","countryName":"France","city":"Marseille","lat":43.3,"lon":5.37}],"countriesServed":[{"country":"SG","capacityShare":0.1,"isRedundant":true},{"country":"IN","capacityShare":0.15,"isRedundant":true},{"country":"AE","capacityShare":0.12,"isRedundant":true},{"country":"SA","capacityShare":0.08,"isRedundant":true},{"country":"EG","capacityShare":0.1,"isRedundant":true}]},{"id":"flag","name":"FLAG Europe-Asia","points":[[0,51],[-6,36],[32.5,30],[55,24],[73,15],[103.8,1.3],[139.7,35.7]],"major":true,"capacityTbps":10,"rfsYear":1997,"owners":["Global Cloud Xchange"],"landingPoints":[{"country":"GB","countryName":"United Kingdom","city":"Porthcurno","lat":50.04,"lon":-5.66},{"country":"EG","countryName":"Egypt","city":"Alexandria","lat":31.2,"lon":29.92},{"country":"AE","countryName":"UAE","city":"Dubai","lat":25.2,"lon":55.27},{"country":"IN","countryName":"India","city":"Mumbai","lat":19.08,"lon":72.88},{"country":"SG","countryName":"Singapore","city":"Singapore","lat":1.35,"lon":103.82},{"country":"JP","countryName":"Japan","city":"Tokyo","lat":35.69,"lon":139.69}],"countriesServed":[{"country":"IN","capacityShare":0.23,"isRedundant":false},{"country":"AE","capacityShare":0.18,"isRedundant":true},{"country":"SA","capacityShare":0.12,"isRedundant":true},{"country":"EG","capacityShare":0.09,"isRedundant":true},{"country":"PK","capacityShare":0.07,"isRedundant":false}]},{"id":"2africa","name":"2Africa","points":[[0,51],[-9,38],[-17,15],[4,6],[18,-34],[55,-20],[55,24],[32.5,30]],"major":true,"capacityTbps":180,"rfsYear":2024,"owners":["Meta","MTN","Vodafone","Orange"],"landingPoints":[{"country":"GB","countryName":"United Kingdom","city":"Bude","lat":50.83,"lon":-4.55},{"country":"PT","countryName":"Portugal","city":"Lisbon","lat":38.72,"lon":-9.14},{"country":"SN","countryName":"Senegal","city":"Dakar","lat":14.69,"lon":-17.44},{"country":"NG","countryName":"Nigeria","city":"Lagos","lat":6.52,"lon":3.38},{"country":"ZA","countryName":"South Africa","city":"Cape Town","lat":-33.93,"lon":18.42},{"country":"KE","countryName":"Kenya","city":"Mombasa","lat":-4.04,"lon":39.67},{"country":"SA","countryName":"Saudi Arabia","city":"Jeddah","lat":21.49,"lon":39.19},{"country":"EG","countryName":"Egypt","city":"Port Said","lat":31.26,"lon":32.3}],"countriesServed":[{"country":"NG","capacityShare":0.3,"isRedundant":true},{"country":"ZA","capacityShare":0.2,"isRedundant":true},{"country":"KE","capacityShare":0.25,"isRedundant":true},{"country":"SN","capacityShare":0.35,"isRedundant":false},{"country":"EG","capacityShare":0.08,"isRedundant":true}]},{"id":"wacs","name":"WACS","points":[[18,-34],[12,-6],[4,6],[-17,15],[-6,36],[0,51]],"major":true,"capacityTbps":14.5,"rfsYear":2012,"owners":["MTN","Vodacom","Togo Telecom"],"landingPoints":[{"country":"ZA","countryName":"South Africa","city":"Cape Town","lat":-33.93,"lon":18.42},{"country":"NG","countryName":"Nigeria","city":"Lagos","lat":6.52,"lon":3.38},{"country":"GB","countryName":"United Kingdom","city":"London","lat":51.51,"lon":-0.13},{"country":"PT","countryName":"Portugal","city":"Lisbon","lat":38.72,"lon":-9.14}],"countriesServed":[{"country":"ZA","capacityShare":0.15,"isRedundant":true},{"country":"NG","capacityShare":0.2,"isRedundant":true},{"country":"GH","capacityShare":0.3,"isRedundant":false},{"country":"CI","capacityShare":0.35,"isRedundant":false}]},{"id":"eassy","name":"EASSy","points":[[18,-34],[32,-26],[40,-15],[44,-12],[50,-20],[55,24]],"major":true,"capacityTbps":10,"rfsYear":2010,"owners":["Consortium of 16 telecom companies"],"landingPoints":[{"country":"ZA","countryName":"South Africa","city":"Mtunzini","lat":-28.95,"lon":31.75},{"country":"MZ","countryName":"Mozambique","city":"Maputo","lat":-25.97,"lon":32.58},{"country":"TZ","countryName":"Tanzania","city":"Dar es Salaam","lat":-6.79,"lon":39.28},{"country":"KE","countryName":"Kenya","city":"Mombasa","lat":-4.04,"lon":39.67},{"country":"DJ","countryName":"Djibouti","city":"Djibouti","lat":11.59,"lon":43.15}],"countriesServed":[{"country":"KE","capacityShare":0.2,"isRedundant":true},{"country":"TZ","capacityShare":0.3,"isRedundant":false},{"country":"MZ","capacityShare":0.25,"isRedundant":false},{"country":"MG","capacityShare":0.4,"isRedundant":false}]},{"id":"sam1","name":"SAm-1","points":[[-43,-23],[-55,-35],[-70,-33],[-77,-12]],"major":true,"capacityTbps":2,"rfsYear":2001,"owners":["Telxius"],"landingPoints":[{"country":"BR","countryName":"Brazil","city":"Rio de Janeiro","lat":-22.91,"lon":-43.17},{"country":"AR","countryName":"Argentina","city":"Buenos Aires","lat":-34.6,"lon":-58.38},{"country":"CL","countryName":"Chile","city":"Valparaiso","lat":-33.05,"lon":-71.62},{"country":"PE","countryName":"Peru","city":"Lima","lat":-12.05,"lon":-77.04}],"countriesServed":[{"country":"BR","capacityShare":0.05,"isRedundant":true},{"country":"AR","capacityShare":0.15,"isRedundant":true},{"country":"CL","capacityShare":0.1,"isRedundant":true},{"country":"PE","capacityShare":0.12,"isRedundant":true}]},{"id":"ellalink","name":"EllaLink","points":[[-9,38],[-25,20],[-35,-5]],"major":true,"capacityTbps":72,"rfsYear":2021,"owners":["EllaLink"],"landingPoints":[{"country":"PT","countryName":"Portugal","city":"Sines","lat":37.95,"lon":-8.87},{"country":"BR","countryName":"Brazil","city":"Fortaleza","lat":-3.73,"lon":-38.53}],"countriesServed":[{"country":"BR","capacityShare":0.08,"isRedundant":true},{"country":"PT","capacityShare":0.15,"isRedundant":true}]},{"id":"apg","name":"APG","points":[[139.7,35.7],[121.5,25],[114,22.3],[103.8,1.3]],"major":true,"capacityTbps":54,"rfsYear":2016,"owners":["NTT","China Telecom","PLDT","Viettel"],"landingPoints":[{"country":"JP","countryName":"Japan","city":"Tokyo","lat":35.69,"lon":139.69},{"country":"TW","countryName":"Taiwan","city":"Taipei","lat":25.03,"lon":121.57},{"country":"HK","countryName":"Hong Kong","city":"Hong Kong","lat":22.32,"lon":114.17},{"country":"SG","countryName":"Singapore","city":"Singapore","lat":1.35,"lon":103.82},{"country":"VN","countryName":"Vietnam","city":"Da Nang","lat":16.05,"lon":108.22}],"countriesServed":[{"country":"JP","capacityShare":0.08,"isRedundant":true},{"country":"TW","capacityShare":0.15,"isRedundant":true},{"country":"VN","capacityShare":0.25,"isRedundant":true},{"country":"TH","capacityShare":0.1,"isRedundant":true}]},{"id":"indigo","name":"Indigo","points":[[103.8,1.3],[115,-8],[151,-34]],"major":true,"capacityTbps":36,"rfsYear":2019,"owners":["Google","AARNet","Indosat","Singtel","SubPartners"],"landingPoints":[{"country":"SG","countryName":"Singapore","city":"Singapore","lat":1.35,"lon":103.82},{"country":"ID","countryName":"Indonesia","city":"Jakarta","lat":-6.21,"lon":106.85},{"country":"AU","countryName":"Australia","city":"Sydney","lat":-33.87,"lon":151.21}],"countriesServed":[{"country":"AU","capacityShare":0.12,"isRedundant":true},{"country":"ID","capacityShare":0.15,"isRedundant":true},{"country":"SG","capacityShare":0.05,"isRedundant":true}]},{"id":"sjc","name":"SJC","points":[[103.8,1.3],[114,22.3],[139.7,35.7],[-122,34]],"major":true,"capacityTbps":28,"rfsYear":2013,"owners":["China Mobile","China Telecom","Google","KDDI"],"landingPoints":[{"country":"SG","countryName":"Singapore","city":"Singapore","lat":1.35,"lon":103.82},{"country":"HK","countryName":"Hong Kong","city":"Hong Kong","lat":22.32,"lon":114.17},{"country":"JP","countryName":"Japan","city":"Chikura","lat":34.95,"lon":139.95},{"country":"US","countryName":"United States","city":"Los Angeles","lat":33.74,"lon":-118.27}],"countriesServed":[{"country":"US","capacityShare":0.02,"isRedundant":true},{"country":"JP","capacityShare":0.1,"isRedundant":true},{"country":"CN","capacityShare":0.05,"isRedundant":true},{"country":"SG","capacityShare":0.08,"isRedundant":true}]},{"id":"farice","name":"FARICE","points":[[-22,64],[-7,62],[-6,53]],"major":true,"capacityTbps":5,"rfsYear":2004,"owners":["Farice ehf"],"landingPoints":[{"country":"IS","countryName":"Iceland","city":"Reykjavik","lat":64.13,"lon":-21.9},{"country":"FO","countryName":"Faroe Islands","city":"Torshavn","lat":62.01,"lon":-6.77},{"country":"GB","countryName":"United Kingdom","city":"Edinburgh","lat":55.95,"lon":-3.19}],"countriesServed":[{"country":"IS","capacityShare":0.6,"isRedundant":false},{"country":"FO","capacityShare":0.7,"isRedundant":false}]},{"id":"falcon","name":"Falcon","points":[[55,24],[56,25],[51.5,26],[48,29]],"major":true,"capacityTbps":5,"rfsYear":2006,"owners":["GBI"],"landingPoints":[{"country":"AE","countryName":"UAE","city":"Fujairah","lat":25.13,"lon":56.34},{"country":"OM","countryName":"Oman","city":"Muscat","lat":23.59,"lon":58.38},{"country":"BH","countryName":"Bahrain","city":"Manama","lat":26.23,"lon":50.59},{"country":"KW","countryName":"Kuwait","city":"Kuwait City","lat":29.38,"lon":47.98}],"countriesServed":[{"country":"AE","capacityShare":0.08,"isRedundant":true},{"country":"OM","capacityShare":0.15,"isRedundant":true},{"country":"BH","capacityShare":0.2,"isRedundant":true},{"country":"KW","capacityShare":0.15,"isRedundant":true}]}]